City_ID,City,Country,Max Temp,Current Description,Lat,Lng,Hotel Name
1,Port Macquarie,AU,68.85,overcast clouds,-31.4333,152.9167,Rydges Port Macquarie
3,Shimoda,JP,73.11,overcast clouds,34.6667,138.95,Shimoda Tokyu Hotel
4,Rikitea,PF,77.63,light rain,-23.1203,-134.9692,People ThankYou
6,Touros,BR,76.12,light rain,-5.1989,-35.4608,INN NEW HORIZON
7,Kibakwe,TZ,59.16,few clouds,-6.7167,36.3667,Muleba guest house
9,Hilo,US,78.28,mist,19.7297,-155.09,Hilo Hawaiian Hotel
10,Aswan,EG,78.1,clear sky,24.0934,32.907,Nuba Nile
11,Avarua,CK,82.45,few clouds,-21.2078,-159.775,Paradise Inn
12,Kapaa,US,82.38,moderate rain,22.0752,-159.319,Sheraton Kauai Coconut Beach Resort
13,Sao Joao Da Barra,BR,76.86,broken clouds,-21.6403,-41.0511,Pousada Porto De Canoas
14,Cape Town,ZA,58.12,fog,-33.9258,18.4232,"Radisson Blu Hotel Waterfront, Cape Town"
15,Souillac,MU,75.83,light rain,-20.5167,57.5167,Shanti Maurice Resort & Spa
16,Karatu,TZ,59.45,broken clouds,-3.3333,35.6667,Highview Coffee Lodge
17,Srivardhan,IN,81.84,clear sky,18.0333,73.0167,Savli Resort/Hotel - Shrivardhan
18,Mitsamiouli,KM,79.84,broken clouds,-11.3847,43.2844,Foyer ADM
19,Inhambane,MZ,67.24,few clouds,-23.865,35.3833,Oceano
20,Mayo,US,66.31,mist,38.8876,-76.5119,Resorts Resource Group International
22,Albany,US,54.52,overcast clouds,42.6001,-73.9662,
24,Hobart,AU,57.25,few clouds,-42.8794,147.3294,St Ives Hobart Accommodation Tasmania
25,Port Elizabeth,ZA,61.11,broken clouds,-33.918,25.5701,39 On Nile Guest House
28,Hermanus,ZA,61.36,few clouds,-34.4187,19.2345,Misty Waves Boutique Hotel
29,Beidao,CN,69.58,clear sky,34.5686,105.8933,Shell Tianshui Maiji District Erma Road Walking Street Hotel
30,Bredasdorp,ZA,58.14,overcast clouds,-34.5322,20.0403,Bredasdorp Country Manor
32,La Palma,US,83.93,clear sky,33.8464,-118.0467,La Quinta Inn & Suites by Wyndham Buena Park
33,Jackson,US,78.67,clear sky,42.4165,-122.8345,Agate Village Apartments
34,Vaini,TO,76.73,scattered clouds,-21.2,-175.2,Keleti Beach Resort
35,Moron,AR,58.98,broken clouds,-34.6534,-58.6198,Hotel Morón
36,Lubango,AO,55.29,clear sky,-14.9172,13.4925,Hotel Serra da Chela
38,Butaritari,KI,81.36,scattered clouds,3.0707,172.7902,Isles Sunset Lodge
39,Akyab,MM,83.95,clear sky,20.15,92.9,Hotel Memory
40,Victoria,HK,81.97,overcast clouds,22.2855,114.1577,Mini Hotel Central
41,Ponta Do Sol,PT,64.0,scattered clouds,32.6667,-17.1,Hotel do Campo
43,Puerto Ayora,EC,73.27,scattered clouds,-0.7393,-90.3518,Finch Bay Galapagos Hotel
44,Pisco,PE,63.01,clear sky,-13.7,-76.2167,Hotel San Isidro Oficial
45,Luang Prabang,LA,85.68,broken clouds,19.8856,102.1347,The Apsara
46,Karratha,AU,80.71,clear sky,-20.7377,116.8463,ibis Styles Karratha
47,Chuy,UY,56.01,clear sky,-33.6971,-53.4616,Nuevo Hotel Plaza
48,Mishan,CN,70.75,overcast clouds,45.55,131.8833,Mishan Hotel
49,Vanimo,PG,87.08,overcast clouds,-2.6741,141.3028,Vahmoneh Lodge Vanimo
50,Busselton,AU,59.11,clear sky,-33.65,115.3333,Observatory Guest House
51,Bubaque,GW,78.15,clear sky,11.2833,-15.8333,"Casa Dora, Bubaque"
52,Dingle,PH,87.19,overcast clouds,10.9995,122.6711,SEGAYA PROPERTY
53,Baiyin,CN,72.73,clear sky,36.5583,104.2081,GreenTree Alliance Gansu Baiyin Renmin Road Hotel
54,Naze,JP,67.12,moderate rain,28.3667,129.4833,Shishime Hotel
55,Faya,SA,55.92,clear sky,18.3851,42.4509,املاك خالد الشعشوع
58,Phimai,TH,84.33,scattered clouds,15.2232,102.4947,Benya Guest House
59,Alta Floresta,BR,71.69,broken clouds,-9.8756,-56.0861,Floresta Amazonica Hotel
60,Angoche,MZ,70.11,scattered clouds,-16.2325,39.9086,Guest House HESADA
62,Saint-Georges,GD,79.12,scattered clouds,12.0564,-61.7485,Radisson Grenada Beach Resort
63,Itoman,JP,75.22,mist,26.1247,127.6694,Southern Beach Hotel & Resort Okinawa
65,San Patricio,US,81.9,overcast clouds,28.017,-97.5169,"Motel 6 Sinton, TX"
66,Manggar,ID,83.68,overcast clouds,-2.8833,108.2667,Guest Hotel
68,Hobyo,SO,83.07,broken clouds,5.3505,48.5268,Iftin hotel hobyo
69,Saint George,US,75.63,clear sky,37.1041,-113.5841,Best Western Plus Abbey Inn
70,Alofi,NU,80.49,few clouds,-19.0595,-169.9187,Taloa Heights
71,Lluta,PE,51.3,clear sky,-16.0147,-72.0142,
74,Burnie,AU,59.94,broken clouds,-41.0667,145.9167,Beachfront Voyager Motor Inn
75,Sorong,ID,84.52,overcast clouds,-0.8833,131.25,Waigo Splash Hotel
76,Yei,SS,66.09,overcast clouds,4.095,30.6779,City Link Hotel
77,Flinders,AU,70.18,few clouds,-34.5833,150.8552,Shellharbour Resort & Conference Centre
78,Mahebourg,MU,76.24,light rain,-20.4081,57.7,Shandrani Beachcomber Resort & Spa
79,Cravo Norte,CO,85.23,overcast clouds,6.3017,-70.2041,Hotel Potosí Los Mirtos
81,Cayenne,GF,79.09,overcast clouds,4.9333,-52.3333,Hôtel Le Dronmi
82,Pangkalanbuun,ID,87.08,broken clouds,-2.6833,111.6167,Grand Kecubung Hotel
83,Oyama,JP,73.58,broken clouds,36.3,139.8,Toyoko Inn Oyama-eki Higashi-guchi No.1
84,East London,ZA,64.11,few clouds,-33.0153,27.9116,Tu Casa
85,Barra,BR,79.66,broken clouds,-11.0894,-43.1417,Motel Albatroz
87,Hamilton,US,57.72,overcast clouds,39.1834,-84.5333,Six Acres Bed & Breakfast
89,Jamestown,US,52.02,overcast clouds,42.097,-79.2353,Hampton Inn & Suites Jamestown
90,Ribeira Grande,PT,62.55,overcast clouds,38.5167,-28.7,Quinta da Meia Eira
93,Lebu,CL,53.87,scattered clouds,-37.6167,-73.65,Hostal Las Lilas
94,Banda Aceh,ID,82.85,overcast clouds,5.5577,95.3222,OYO 884 Rumoh PMI Hotel
96,Axim,GH,79.84,light rain,4.8699,-2.2405,Axim Beach Resort And Spa
98,Cidreira,BR,65.97,overcast clouds,-30.1811,-50.2056,Hotel Castelo
99,Fairbanks,US,55.98,broken clouds,64.8378,-147.7164,Westmark Fairbanks Hotel & Conference Center
100,Atuona,PF,79.18,clear sky,-9.8,-139.0333,Villa Enata
102,Rurrenabaque,BO,61.93,clear sky,-14.4413,-67.5278,Casa de Campo
104,Laem Sing,TH,84.42,overcast clouds,12.4816,102.0738,Laemsing Whitehouse Resort
105,Stanisic,RS,57.15,broken clouds,45.94,19.1653,
108,Denpasar,ID,85.71,few clouds,-8.65,115.2167,OYO 3156 Hotel Warta 2
109,Grand Gaube,MU,77.4,scattered clouds,-20.0064,57.6608,Veranda Paul et Virginie Hotel & Spa
110,Preobrazheniye,RU,52.97,broken clouds,42.9019,133.9064,Campsite Orlan
112,Palmas Bellas,PA,84.02,overcast clouds,9.2319,-80.0867,Antigua Residencia Galván
113,Mataura,NZ,63.48,broken clouds,-46.1927,168.8643,Ellie's Villa
114,New Norfolk,AU,56.91,broken clouds,-42.7826,147.0587,The Shingles Riverside Cottages
115,Fortuna,US,55.92,few clouds,40.5982,-124.1573,Super 8 by Wyndham Fortuna
117,Rabo De Peixe,PT,62.11,broken clouds,37.8,-25.5833,Quinta das Giestas
118,Mahajanga,MG,69.82,few clouds,-15.7167,46.3167,Restaurant Greedy Coco Lodge Majunga
119,Ngunguru,NZ,66.38,clear sky,-35.6167,174.5,Pacific Rendezvous Motel Resort
120,Puerto Escondido,MX,82.49,overcast clouds,15.85,-97.0667,Aldea del Bazar Hotel and Spa
121,Port Alfred,ZA,64.6,overcast clouds,-33.5906,26.891,The Halyards Hotel
123,Sioux Lookout,CA,53.67,few clouds,50.1001,-91.917,Knobby's Fly-In Camps
124,San Cristobal,VE,75.38,overcast clouds,7.7669,-72.225,Pirineos
132,Peterhead,GB,50.4,overcast clouds,57.5058,-1.7981,Palace Hotel
133,Oussouye,SN,72.75,clear sky,12.485,-16.5469,Auberge du Routard
134,Loja,EC,56.52,light rain,-3.9931,-79.2042,Hotel Libertador
136,Waingapu,ID,85.73,overcast clouds,-9.6567,120.2641,Pondok Wisata Elim
137,Vila Franca Do Campo,PT,63.01,overcast clouds,37.7167,-25.4333,Pestana Bahia Praia
138,Baghdad,IQ,76.91,overcast clouds,33.3406,44.4009,Baghdad Hotel
139,Saint-Philippe,RE,74.79,light rain,-21.3585,55.7679,"Chambres d'hôte ""La Trinité"""
140,Lompoc,US,75.34,mist,34.6391,-120.4579,"Holiday Inn Express Lompoc, an IHG Hotel"
142,Bambous Virieux,MU,76.21,light rain,-20.3428,57.7575,Casa Tia Villa
143,Majene,ID,85.62,overcast clouds,-3.5403,118.9707,Kost Putri RABBANI
144,Beitbridge,ZW,63.3,clear sky,-22.2167,30.0,Beitbridge Express Hotel
146,Aripuana,BR,72.03,broken clouds,-9.1667,-60.6333,
148,Sao Joao Do Paraiso,BR,65.7,clear sky,-15.3136,-42.0144,Avenida Palace Hotel
149,Lagoa,PT,61.16,overcast clouds,39.05,-27.9833,Casa Das Faias
151,Hithadhoo,MV,82.9,heavy intensity rain,-0.6,73.0833,Scoop Guest House
152,Ammon,US,57.7,clear sky,43.4696,-111.9666,"Holiday Inn Express & Suites Idaho Falls, an IHG Hotel"
154,Hualmay,PE,64.78,clear sky,-11.0964,-77.6139,Hotel Villa Kitzia Huacho
156,Gatesville,US,81.36,clear sky,31.4352,-97.7439,Ramada by Wyndham Gatesville N. Fort Hood
157,Gualeguay,AR,51.21,scattered clouds,-33.1416,-59.3097,Faro del Lago
158,Loreto,MX,78.15,overcast clouds,22.2667,-101.9667,José de Jesús Velásquez mora
159,Maragogi,BR,77.38,scattered clouds,-9.0122,-35.2225,Salinas do Maragogi All Inclusive Resort
160,Moctezuma,MX,78.46,clear sky,29.8,-109.6667,Hotel Lobohombo
165,Chimoio,MZ,58.23,broken clouds,-19.1164,33.4833,Predio Livraria Ahmed
166,Mar Del Plata,AR,55.94,overcast clouds,-38.0023,-57.5575,Gran Hotel Mar del Plata
167,Sur,OM,81.55,clear sky,22.5667,59.5289,Sur Plaza Hotel
168,Pantai Remis,MY,81.99,overcast clouds,4.4557,100.6288,Leisure Homestay
169,Ibadan,NG,71.91,overcast clouds,7.3878,3.8964,Orchard Hotel
170,Wewak,PG,85.35,broken clouds,-3.5534,143.6268,In Wewak Boutique Hotel
171,Los Llanos De Aridane,ES,62.35,scattered clouds,28.6585,-17.9182,Valle Aridane
173,Sangin,AF,74.86,clear sky,32.0728,64.8359,
174,Morehead,US,57.94,clear sky,37.2711,-87.1764,CCI Express Inn
175,Cabo San Lucas,MX,76.3,clear sky,22.8909,-109.9124,Hotel Tesoro Los Cabos
177,West Memphis,US,69.37,clear sky,35.1465,-90.1845,Ramada by Wyndham West Memphis
179,Marana,US,84.54,clear sky,32.4367,-111.2254,Valley of the Sun Mobile Home & RV Park 55+
181,Nouadhibou,MR,63.48,clear sky,20.931,-17.0347,El Medina
182,Uberlandia,BR,59.95,broken clouds,-18.9186,-48.2772,Hotel Apollo
185,Umm Lajj,SA,77.23,clear sky,25.0213,37.2685,Moon light Furnished Units
186,General Roca,AR,60.26,broken clouds,-39.0333,-67.5833,Hotel El Recreo
188,Bandarbeyla,SO,81.27,scattered clouds,9.4942,50.8122,JABIR HOTEL
189,Bela,IN,88.77,scattered clouds,25.9333,81.9833,Raj Bhawan
190,Rawson,AR,64.27,broken clouds,-43.3002,-65.1023,Hosteria Sampedro
191,Kasongo-Lunda,CD,70.66,overcast clouds,-6.4667,16.8167,
192,Merauke,ID,85.82,overcast clouds,-8.4667,140.3333,
193,Harper,LR,80.58,broken clouds,4.375,-7.7169,Screensaver
194,Mattru,SL,77.77,light rain,7.6244,-11.8332,"Mondkor Town, Bagbo Chiefdom, Bo District"
195,San-Pedro,CI,80.22,overcast clouds,4.7485,-6.6363,Hotel Maria
196,Sabzevar,IR,51.08,clear sky,36.2126,57.6819,پزشکی قانونی سبزوار
197,Ixtapa,MX,77.23,overcast clouds,20.7,-105.2,hotel la terminal
198,Sao Filipe,CV,71.96,few clouds,14.8961,-24.4956,Hotel Xaguate
201,Guerrero Negro,MX,60.37,clear sky,27.9769,-114.0611,"Casa Laguna, Bed & Breakfast"
202,Dickinson,US,79.12,few clouds,29.4608,-95.0513,Hampton Inn & Suites Houston/League City
203,Nicoya,CR,77.58,light rain,10.1483,-85.452,Las Cabinas Del Sueño
204,Sinnamary,GF,76.15,overcast clouds,5.3833,-52.95,ALETHEIA Appartement Sinnamary
205,Airai,TL,74.82,overcast clouds,-8.9266,125.4092,
206,George Town,MY,85.95,few clouds,5.4112,100.3354,Cititel Penang
207,Pathein,MM,87.94,few clouds,16.7833,94.7333,Pathein Hotel
208,Port Lincoln,AU,57.74,overcast clouds,-34.7333,135.8667,Port Lincoln Hotel
209,Ariquemes,BR,72.41,broken clouds,-9.9133,-63.0408,Hotel Sol Nascente - Ariquemes - RO
211,Diamantino,BR,63.19,clear sky,-14.4086,-56.4461,Hotel Delta
212,Huilong,CN,67.12,clear sky,31.8111,121.655,Hilton Garden Inn Qidong
213,Jasdan,IN,79.92,clear sky,22.0333,71.2,આવકાર હોટલ
214,Karpathos,GR,60.76,clear sky,35.507,27.2132,Alex
215,Alexander City,US,73.18,clear sky,32.944,-85.9539,Hampton Inn Alexander City
216,Kainantu,PG,68.36,overcast clouds,-6.2887,145.8655,Sylvester buku
217,Carnarvon,AU,79.79,clear sky,-24.8667,113.6333,Hospitality Carnarvon
218,Tuatapere,NZ,64.42,overcast clouds,-46.1333,167.6833,Ron and Tony's Bed & Breakfast
219,Nicolas Bravo,MX,77.63,broken clouds,18.45,-88.9167,
220,Georgetown,MY,85.95,few clouds,5.4112,100.3354,Cititel Penang
222,Rafaela,AR,54.99,overcast clouds,-31.2503,-61.4867,Parra Hotel & Suites
223,Estepona,ES,57.02,clear sky,36.4276,-5.1459,H10 Estepona Palace
224,Kudahuvadhoo,MV,81.97,light rain,2.6708,72.8944,Niyama Private Islands Maldives
225,Ugoofaaru,MV,85.12,overcast clouds,5.6667,73.0,Ungoofaaru Inn
227,Kailua,US,84.18,scattered clouds,21.4022,-157.7394,Sheffield House Bed & Breakfast
228,Kyshtovka,RU,50.86,overcast clouds,56.555,76.6271,Uyutnaya Mini-Hotel
229,Hirara,JP,73.67,light intensity shower rain,24.8,125.2833,Hotel Atoll Emerald Miyakojima
231,Margate,GB,51.87,clear sky,51.3813,1.3862,Premier Inn Margate hotel
232,Beloha,MG,65.05,broken clouds,-25.1667,45.05,
234,Galveston,US,79.05,scattered clouds,29.3669,-94.9669,Crystal Suites
235,Hauterive,FR,52.56,overcast clouds,46.0901,3.4459,Aletti Palace Hotel
238,Bluff,NZ,63.81,broken clouds,-46.6,168.3333,Bluff Homestead - Guesthouse & Campervan Park
239,Namatanai,PG,84.33,light rain,-3.6667,152.4333,Seagulls Inn Namatani
242,Kahului,US,78.96,scattered clouds,20.8947,-156.47,Maui Seaside Hotel
244,Constitucion,CL,55.96,overcast clouds,-35.3333,-72.4167,Hotel Boutique Las Azucenas
245,Codrington,AU,54.77,overcast clouds,-38.2667,141.9667,Codrington Gardens Bed And Breakfast
246,Post Falls,US,68.65,clear sky,47.718,-116.9516,Red Lion Hotel Templin's on the River
248,Durban,ZA,65.01,clear sky,-29.8579,31.0292,Hilton Durban
249,Kaitangata,NZ,63.68,few clouds,-46.2817,169.8464,Kaitangata Motor Camp
251,Mocuba,MZ,64.02,broken clouds,-16.8392,36.9856,Phama Lodge
252,Greeley,US,51.12,overcast clouds,40.4233,-104.7091,Fairfield Inn & Suites by Marriott Greeley
253,Hasaki,JP,79.29,overcast clouds,35.7333,140.8333,Inubosaki Kanko Hotel
254,Chegutu,ZW,56.59,few clouds,-18.1302,30.1407,Jacaranda Lodge
255,Salalah,OM,82.49,few clouds,17.0151,54.0924,"HAMDAN PLAZA HOTEL SALALAH, an HTG Hotel"
256,Khudumelapye,BW,59.49,clear sky,-23.8833,24.75,
257,Monte Lirio,PA,69.08,overcast clouds,8.7833,-82.8333,Finca Don K-chiro
258,Leshan,CN,76.24,overcast clouds,29.5623,103.7639,Leshan Haiyun International Youth Hostel
259,Faanui,PF,81.73,light rain,-16.4833,-151.75,Bora-Bora Pearl Beach Resort & Spa
260,Warrenton,ZA,57.45,clear sky,-28.114,24.8475,Fish Eagles Call Warrenton
262,Narrabri,AU,71.53,overcast clouds,-30.3167,149.7833,Crossroads Hotel
263,Eydhafushi,MV,84.83,light rain,5.1033,73.0708,Soneva Fushi
266,Rantepao,ID,80.51,overcast clouds,-2.9701,119.8978,Hotel Luta Resort
267,Porto Velho,BR,75.25,few clouds,-8.7619,-63.9039,Ecos Hotel Conforto
268,Alamo,MX,78.75,clear sky,20.9167,-97.6833,Hotel Elizabeth
269,Summerland,CA,58.55,overcast clouds,49.5998,-119.6691,Summerland Waterfront Resort Hotel
270,Kaka,TM,66.94,scattered clouds,37.3482,59.6143,
272,Ahipara,NZ,69.67,clear sky,-35.1667,173.1667,Ahipara Holiday Park
274,Arica,CL,63.95,clear sky,-18.475,-70.3042,Hostal Jardin Del Sol
275,Manama,BH,84.18,clear sky,26.2154,50.5832,Al Safir Hotel
276,Dullewala,PK,80.74,clear sky,31.8359,71.4362,Sajid fruit shop
277,Bela Vista Do Paraiso,BR,58.24,broken clouds,-22.9967,-51.1906,Recanto Valone
278,Beyneu,KZ,56.82,clear sky,45.3167,55.2,NUR
279,Kununurra,AU,89.58,clear sky,-15.7667,128.7333,Hotel Kununurra
281,Sassandra,CI,79.43,light rain,4.95,-6.0833,la terrasse
283,Nova Esperanca,BR,70.83,overcast clouds,4.438,-61.1151,Pousada Macunaíma
284,Curanilahue,CL,51.91,broken clouds,-37.4667,-73.35,Hotel Plaza los Leones
285,Kota Belud,MY,86.29,overcast clouds,6.351,116.4305,Tang Dynasty Lodge Kota Belud
286,Key Largo,US,79.0,clear sky,25.0865,-80.4473,Bayside Inn Key Largo
288,Namibe,AO,78.17,clear sky,-15.1961,12.1522,Hotel Chik Chik Namibe
289,Bethel,US,57.36,broken clouds,41.3712,-73.414,Courtyard by Marriott Danbury
290,Guanambi,BR,72.93,clear sky,-14.2233,-42.7814,Hotel Portal Guanambi
291,Elko,US,64.22,broken clouds,41.0002,-115.5012,
292,Hami,CN,80.71,overcast clouds,42.8,93.45,Laoyutang Resort
293,Komsomolskiy,UZ,66.92,few clouds,40.4272,71.7189,Ikathouse
294,Shiyan,CN,83.41,clear sky,32.6475,110.7781,Fenghuang Garden Holiday Hotel
295,Rocky Mount,US,75.36,few clouds,35.9382,-77.7905,Days Inn & Suites by Wyndham Rocky Mount Golden East
296,College,US,55.98,broken clouds,64.8569,-147.8028,Pike's Waterfront Lodge
297,Pochutla,MX,84.02,broken clouds,15.7432,-96.4661,Hotel Posada San Jose
298,Boa Vista,BR,76.98,scattered clouds,2.8197,-60.6733,Aipana Plaza Hotel
302,Guiratinga,BR,60.8,clear sky,-16.3494,-53.7583,Hotel Angra do Cerrado - Guiratinga MT
303,Nizwa,OM,79.68,clear sky,22.9333,57.5333,Orient Apartments
304,Chicama,PE,67.77,broken clouds,-7.8447,-79.1469,Balihai Bungalows
305,Odweyne,SO,73.9,few clouds,9.4092,45.064,Eng Hiirey House
306,Calama,CL,50.49,clear sky,-22.4667,-68.9333,Park Hotel Calama
307,Chimore,BO,63.46,few clouds,-16.9833,-65.1333,Bichito
308,Puerto Ayacucho,VE,79.7,moderate rain,5.6639,-67.6236,Posada Turistica Manapiare
309,Kumluca,TR,62.15,scattered clouds,36.3703,30.2869,TurkuazKöy
310,Pitiquito,MX,80.71,clear sky,30.7,-112.0833,La Víspera
311,Buriti Bravo,BR,71.92,few clouds,-5.8372,-43.8336,Hotel Brasil
312,Kulhudhuffushi,MV,84.74,overcast clouds,6.6221,73.07,Haajy Guest House 1
313,Arraial Do Cabo,BR,75.18,broken clouds,-22.9661,-42.0278,Pousada Porto Praia
314,Kendari,ID,83.62,overcast clouds,-3.945,122.4989,Hotel Wixel
315,Kisangani,CD,70.92,overcast clouds,0.5167,25.2,Grand Ramela Hotel
317,Kindu,CD,71.47,overcast clouds,-2.95,25.95,Résidence Okanda
318,Batemans Bay,AU,64.09,overcast clouds,-35.7167,150.1833,Batemans Bay Marina Resort
319,Alice Springs,AU,60.35,broken clouds,-23.7,133.8833,Desert Palms Alice Springs
320,Victor Harbor,AU,54.0,light rain,-35.5667,138.6167,McCracken Country Club
321,Baghmara,IN,84.38,scattered clouds,23.795,86.2085,Shankar tea shop
322,Camopi,GF,71.47,overcast clouds,3.1655,-52.3158,La pousada
323,Vila Velha,BR,78.94,few clouds,-20.3297,-40.2925,Hotel Vitória Palace
326,Nsanje,MW,63.43,clear sky,-16.92,35.262,Nsanje Discovery Lodge
327,Fukue,JP,70.16,few clouds,32.6881,128.8419,Goto Guesthouse Utojuku & SA Car Rental
329,Lillooet,CA,53.26,overcast clouds,50.6856,-121.942,Hotel Victoria
332,Buala,SB,85.84,scattered clouds,-8.145,159.5921,Maringe Lagoon Lodge
334,Geraldton,AU,70.21,clear sky,-28.7667,114.6,Broadwater Mariner Resort
336,Savannah Bight,HN,82.0,overcast clouds,16.45,-85.85,Villa on Dunbar Rock
337,Rio De Jesus,PA,77.02,overcast clouds,7.9844,-81.1631,Parador fotografico Rio de Jesus
338,Eureka,US,56.19,overcast clouds,40.8021,-124.1637,Eureka Inn Trademark By Wyndham
340,Fergus Falls,US,54.16,clear sky,46.283,-96.0776,AmericInn by Wyndham Fergus Falls Conference Center
342,Champerico,GT,84.61,overcast clouds,14.3,-91.9167,"Hotel y restaurante ""El Diamante"""
343,Ontario,US,84.4,clear sky,34.0633,-117.6509,Capri Motel
344,Yining,CN,78.39,clear sky,29.0361,114.5636,Xiushui Hotel
345,Vung Tau,VN,83.1,overcast clouds,10.346,107.0843,Seaside Resort
346,Kovur,IN,87.67,broken clouds,14.4833,79.9833,Hotel Yesh Park
348,Waddan,LY,69.42,clear sky,29.1614,16.139,محل الشريف محمد العايب
349,Pitmoaga,BF,88.23,overcast clouds,12.2397,-1.8767,
350,Kavaratti,IN,85.46,light rain,10.5669,72.642,Hotels in Lakshadweep Islands
351,Acapulco,MX,80.01,overcast clouds,16.8634,-99.8901,HS Hotsson Smart Acapulco
352,Batticaloa,LK,83.1,broken clouds,7.7102,81.6924,Grand Star Guest House
353,Aix-Les-Bains,FR,56.79,broken clouds,45.6834,5.9224,Hôtel Villa Marlioz
355,Puerto Leguizamo,CO,73.11,heavy intensity rain,-0.1934,-74.7819,la casona de juancho
356,Nantucket,US,53.74,fog,41.2835,-70.0995,Jared Coffin House
357,Mandali,IQ,73.27,clear sky,33.7499,45.5541,قرئ الشيخ سحاب الندا
360,Auki,SB,84.4,scattered clouds,-8.7676,160.7034,Auki Motel
361,Acari,PE,69.26,clear sky,-15.4311,-74.6158,HOSPEDAJE XIMENA
362,Dwarka,IN,82.36,few clouds,22.2394,68.9678,Hotel Narayan Avezika Comfort
364,Langsa,ID,80.65,overcast clouds,4.4683,97.9683,OYO 3328 Hotel Mori
365,Talcahuano,CL,53.28,mist,-36.7167,-73.1167,departamento comodo
366,Kirkuk,IQ,67.05,clear sky,35.4681,44.3922,Cihad Oteli
367,Madison,US,71.33,clear sky,34.7334,-86.5667,Embassy Suites by Hilton Huntsville Hotel & Spa
368,Tambura,SS,68.86,overcast clouds,5.6,27.4667,Rikito Lodge
369,Camana,PE,68.43,clear sky,-16.6228,-72.7111,Hostal Morales
371,Vostok,RU,62.91,broken clouds,46.4856,135.8833,
372,Saquena,PE,73.8,overcast clouds,-4.6667,-73.5167,
374,Yulara,AU,62.71,clear sky,-25.2406,130.9889,Desert Gardens Hotel - Ayers Rock Resort
375,Kruisfontein,ZA,58.89,overcast clouds,-34.0033,24.7314,Oyster Bay House Rental
376,Florence,IT,56.75,clear sky,43.7667,11.25,Hotel Nuova Italia
378,Nurota,UZ,69.6,overcast clouds,40.5614,65.6886,Guest House Ruslan Nurata & Tours
379,Arlit,NE,86.79,few clouds,18.7369,7.3853,Case de Passage De la Prefecture
381,Leyland,GB,50.99,scattered clouds,53.6979,-2.6876,Preston Leyland Hotel | Signature Collection by Best Western
382,Camacha,PT,60.22,broken clouds,33.0833,-16.3333,Hotel Porto Santo & Spa
383,Progreso,MX,86.11,clear sky,21.2833,-89.6667,Playa Linda Hotel
384,Guangzhou,CN,80.55,overcast clouds,23.1167,113.25,Shangjiuwan Hotel
385,Lebyazhye,RU,52.48,clear sky,55.2689,66.4947,
386,Comodoro Rivadavia,AR,55.26,clear sky,-45.8667,-67.5,Austral Hotel
388,Rio Grande,BR,51.94,scattered clouds,-32.035,-52.0986,Hotel Atlântico Rio Grande
390,Isangel,VU,81.25,clear sky,-19.55,169.2667,Tanna Lodge
391,Rocha,UY,52.05,clear sky,-34.4833,-54.3333,Hotel Arrarte
392,Mercedes,AR,52.03,broken clouds,-34.6515,-59.4307,Posada del Inti Centro
394,Yumen,CN,72.03,overcast clouds,40.2833,97.2,
395,Coquimbo,CL,55.13,clear sky,-29.9533,-71.3436,Hotel San Juan
396,Port-Gentil,GA,78.19,overcast clouds,-0.7193,8.7815,Fengshui Residence
397,Asyut,EG,66.81,clear sky,27.181,31.1837,فندق ميس إيجيبت Miss Egypt Hotel
398,Isla Mujeres,MX,82.45,clear sky,21.2311,-86.731,Hotel La Joya Isla Mujeres
399,Kaihua,CN,66.6,overcast clouds,23.3687,104.28,Zhongyu Hotel
400,Cockburn Town,TC,77.65,clear sky,21.4612,-71.1419,Osprey Beach Hotel
401,Bathsheba,BB,79.41,scattered clouds,13.2167,-59.5167,Atlantis Hotel
403,Salinas,US,71.73,clear sky,36.6777,-121.6555,Laurel Inn & Conference Center
406,Catuday,PH,83.44,overcast clouds,16.2923,119.8062,Benjie's Kubo & Cottages
407,Pimentel,PE,65.82,broken clouds,-6.8367,-79.9342,Hotel Puerto del Sol
408,Santander,ES,54.46,broken clouds,43.4647,-3.8044,Abba Santander Hotel
411,Taunggyi,MM,69.49,scattered clouds,20.7833,97.0333,True Treasure Hotel
412,Arsenyev,RU,75.2,broken clouds,44.1631,133.2733,ArsHostel on Kalininskaya 18
413,Gat,IL,61.48,few clouds,31.61,34.7642,OlusHome
415,Broome,US,55.2,overcast clouds,42.2506,-75.833,Chenango Valley State Park
416,Amroha,IN,84.49,clear sky,28.9167,78.4667,Hotel Parth Amroha
418,Kavieng,PG,85.3,light rain,-2.5744,150.7967,Nusa Island Retreat
419,Riyadh,SA,84.43,clear sky,24.6877,46.7219,"InterContinental Riyadh, an IHG Hotel"
420,Trento,IT,57.65,overcast clouds,46.0679,11.1211,Hotel Sporting Trento
421,Planaltina,BR,72.18,overcast clouds,-15.4528,-47.6142,Retiro Maranata
422,Saldanha,ZA,60.13,scattered clouds,-33.0117,17.9442,Blue Bay Lodge
425,Brokopondo,SR,75.65,overcast clouds,4.75,-55.1667,Matu Island
426,Baherden,TM,70.11,clear sky,38.4362,57.4316,
427,Samur,RU,51.15,overcast clouds,41.8253,48.486,Samur
429,Morros,BR,74.57,broken clouds,-9.4467,-46.3003,
431,Itaituba,BR,73.15,scattered clouds,-4.2761,-55.9836,Hotel Campos
432,Pitimbu,BR,78.6,scattered clouds,-7.4706,-34.8086,Reserva do Abiaí
433,San Jose,US,84.58,clear sky,37.3394,-121.895,The Westin San Jose
435,Jieshi,CN,81.95,overcast clouds,22.8134,115.8257,Yuehai Hotel
436,Omboue,GA,74.44,light rain,-1.5746,9.2618,Hotel Olako
437,Camabatela,AO,61.92,few clouds,-8.1881,15.375,Comércio e Prestação de Serviços
438,Lashio,MM,66.06,overcast clouds,22.9333,97.75,Hotel CF Lashio - Burmese Only
439,Latung,PH,82.53,overcast clouds,5.5,120.8833,
440,Yekepa,LR,69.35,light rain,7.5753,-8.5419,Alvino Hotel
441,Labuhan,ID,83.37,overcast clouds,-6.8844,112.2051,DoubleFAG
442,Labrea,BR,73.22,broken clouds,-7.2586,-64.7981,Hotel Novo Horizonte
443,El Arenal,MX,84.11,overcast clouds,20.7833,-103.7,Hotel el campesino
444,Emerald,AU,81.34,clear sky,-23.5333,148.1667,The Irish Village
447,Jiexiu,CN,79.34,scattered clouds,37.0244,111.9125,IU Hotel Jinzhong Yuhua Road
448,Pringsewu,ID,83.79,broken clouds,-5.3582,104.9744,Urban Style by Front One
450,Kingaroy,AU,78.1,clear sky,-26.5333,151.8333,Ascot Lodge Motel Kingaroy
454,Montepuez,MZ,62.64,broken clouds,-13.1256,38.9997,PembaAparthotel
455,Bambari,CF,71.22,overcast clouds,5.768,20.6757,Hotel-Restaurant BIBICH
457,Oum Hadjer,TD,88.83,overcast clouds,13.2954,19.6966,
458,Kralendijk,BQ,80.58,broken clouds,12.15,-68.2667,Divi Flamingo Beach Resort & Casino
464,Omachi,JP,70.74,clear sky,36.5,137.8667,Ochicochi Village
466,Klyuchi,RU,51.03,broken clouds,52.2667,79.1667,Vesolaya Mayovka
468,Frutal,BR,63.27,broken clouds,-20.0247,-48.9406,Hotel Recanto Dos Ipês
469,Araouane,ML,85.05,few clouds,18.9048,-3.5265,
470,Andros Town,BS,76.96,clear sky,24.7,-77.7667,Hanks place
471,Ambon,ID,89.74,few clouds,-3.6954,128.1814,Swiss-Belhotel Ambon
473,Chamba,IN,74.08,clear sky,32.5667,76.1333,NotOnMap - Rafi's House
474,Aloleng,PH,85.15,broken clouds,16.1307,119.7824,Steve Walden and Emma Sison-Walden Residence
475,Sabha,LY,73.04,few clouds,27.0377,14.4283,Foundation Taaj Asala for Historical Research and Archeology
477,Pathalgaon,IN,83.3,clear sky,22.5667,83.4667,Queens Park Marriage Garden
478,Orbetello,IT,54.68,overcast clouds,42.4408,11.2196,Argentario Golf & Wellness Resort
480,Cozumel,MX,80.01,broken clouds,20.5083,-86.9458,Cozumel Palace® All Inclusive Resort
481,Waipawa,NZ,64.02,clear sky,-41.4122,175.5153,Tora Coastal Walk
483,Nakusp,CA,53.47,overcast clouds,50.2499,-117.8023,Riders Retreat
484,Te Anau,NZ,62.89,scattered clouds,-45.4167,167.7167,Kingsgate Hotel Te Anau
485,Teahupoo,PF,82.36,light rain,-17.8333,-149.2667,Vanira Lodge
487,Kenai,US,55.02,broken clouds,60.5544,-151.2583,Aspen Extended Stay Suites
488,Yuksekova,TR,53.35,dust,37.5736,44.2872,Hotel Grand Yılmaz
491,Richards Bay,ZA,63.9,clear sky,-28.783,32.0377,BON Hotel Waterfront Richards Bay
493,Topolobampo,MX,75.11,clear sky,25.6,-109.05,Hotel Marina Topolobampo
494,Olga,RU,52.86,broken clouds,43.7444,135.2892,Gostinitsa Rosmorport.
496,Linxia,CN,70.36,clear sky,35.6003,103.2064,GreenTree Inn Linxia Autonomous Prefecture Linxia Oxford River Avenue Express Hotel
497,Ambilobe,MG,68.09,scattered clouds,-13.2,49.05,Hôtel & Restaurant DIANA Ambilobe
500,San Andres,CO,82.42,few clouds,12.5847,-81.7006,Hotel Arena Blanca
501,Yaan,NG,76.21,overcast clouds,7.3833,8.5667,
502,Blackwater,AU,82.6,clear sky,-23.5833,148.8833,Blackwater Motor Inn
504,Sandpoint,US,66.85,scattered clouds,48.2766,-116.5533,Hotel Ruby Sandpoint/Ponderay
508,Hammond,US,50.23,clear sky,41.5834,-87.5,"Courtyard by Marriott Chicago Southeast/Hammond, IN"
509,Ajdabiya,LY,63.77,clear sky,30.7554,20.2263,Almadina Hotel
510,Magog,CA,50.76,overcast clouds,45.2668,-72.1491,Auberge du Grand Lac
511,La Asuncion,VE,67.73,broken clouds,11.0333,-63.8628,Colinas de Matasiete
513,Sabang,ID,82.53,overcast clouds,5.8933,95.3214,Hotel Citra
514,Byron Bay,AU,79.95,broken clouds,-28.65,153.6167,Backpackers Inn
516,Caravelas,BR,78.1,clear sky,-17.7125,-39.2481,Pousada dos Navegantes
518,Talara,PE,67.1,broken clouds,-4.5772,-81.2719,Hostal Oro Negro
519,Hokitika,NZ,62.06,broken clouds,-42.7167,170.9667,Beachfront Hotel Hokitika
520,Havelock,US,72.97,overcast clouds,34.8791,-76.9013,Sherwood Motel
521,Jiaojiang,CN,77.0,overcast clouds,28.6803,121.4428,Fangyuan Hotel
522,Hue,VN,77.11,broken clouds,16.4667,107.6,Saigon Morin Hotel
523,Maryville,US,70.0,broken clouds,35.7565,-83.9705,"Holiday Inn Express & Suites Alcoa (Knoxville Airport), an IHG Hotel"
524,Lakatoro,VU,82.51,few clouds,-16.0999,167.4164,Lakatoro Palm Lodge
525,Lata,PT,54.07,clear sky,40.1629,-8.3327,Casa Maquia
526,Hailey,US,57.06,clear sky,43.5196,-114.3153,Wood River Inn & Suites
528,Necochea,AR,55.29,broken clouds,-38.5473,-58.7368,dyd -mar Hotel
529,Uniao,BR,73.76,scattered clouds,-4.5858,-42.8642,Pousada União
530,Xai-Xai,MZ,65.57,broken clouds,-25.0519,33.6442,Complexo da Familia
531,Sola,VU,81.86,few clouds,-13.8833,167.55,Leumerus Bungalows
532,Piacabucu,BR,77.52,few clouds,-10.4056,-36.4344,Piaçabuçu News
533,Caxito,AO,72.99,broken clouds,-8.5785,13.6643,
536,Cirebon,ID,83.68,overcast clouds,-6.7063,108.557,ASTON Cirebon Hotel & Convention Center
538,Port Augusta,AU,60.3,scattered clouds,-32.5,137.7667,Majestic Oasis Apartments
539,Inirida,CO,73.87,moderate rain,3.8653,-67.9239,Fuente del Guania Hotel de Lujo
540,Tamandare,BR,77.83,scattered clouds,-8.7597,-35.1047,Pousada 100 Passos
541,Saint-Martin-De-Crau,FR,58.98,clear sky,43.6395,4.8127,Hotel Residence La Transhumance
542,Natchez,US,74.64,clear sky,31.5604,-91.4032,Hampton Inn & Suites Natchez
543,Tautira,PF,81.5,light rain,-17.7333,-149.15,Pension Oaoa
545,Abha,SA,55.65,clear sky,18.2164,42.5053,Abha Hotel
548,Kaduqli,SD,79.74,overcast clouds,11.0167,29.7167,Nussyba
549,Shihezi,CN,70.83,overcast clouds,44.3,86.0333,Home Inn Shihezi Dongwu Road Century Square
550,Simao,CN,60.48,overcast clouds,22.7886,100.9748,Changyu Hotel
551,Nova Olinda Do Norte,BR,73.53,broken clouds,-3.8881,-59.0942,Casa Juazeiro
553,Pemangkat,ID,82.42,overcast clouds,1.1667,108.9667,Ramah Kost KITA
554,Port Moresby,PG,80.64,overcast clouds,-9.4431,147.1797,Lamana Hotel (Port Moresby)
555,Saint-Joseph,RE,73.78,light rain,-21.3667,55.6167,"""Plantation Bed and Breakfast"
556,Santo Antonio Do Ica,BR,73.74,moderate rain,-3.1022,-67.9397,HOTEL AMAZON WAY
557,Juegang,CN,74.95,clear sky,32.3174,121.1855,Rudong Y Hotel
558,Najran,SA,75.56,clear sky,17.4924,44.1277,محمد هادي ال فطيح
559,Mildura,AU,55.08,broken clouds,-34.2,142.15,Mercure Hotel Mildura
560,Lufilufi,WS,87.58,few clouds,-13.8745,-171.5986,Leuaina Beach Resort and Spa
561,Santa Cruz,BO,58.46,clear sky,-17.8,-63.1667,Aviador Hotel Boutique
562,Fereydun Kenar,IR,62.82,broken clouds,36.6864,52.5225,Khezer Shahr Tourist Hotel
563,Bida,NG,80.73,overcast clouds,9.0833,6.0167,Royal Suite
565,Shenjiamen,CN,64.67,scattered clouds,29.9576,122.298,Jinjiang Inn Zhoushan Putuo Shenjiamen
567,Ewa Beach,US,84.15,broken clouds,21.3156,-158.0072,Base Lodging
568,Athens,GR,59.16,few clouds,37.9795,23.7162,Safestay Athens
569,Port Blair,IN,78.84,broken clouds,11.6667,92.75,"Welcomhotel By ITC Hotels, Bay Island, Port Blair"
573,Amapa,BR,72.39,overcast clouds,1.0,-52.0,
574,Kidal,ML,85.03,few clouds,18.4411,1.4078,
575,Kapoeta,SS,76.55,overcast clouds,4.7717,33.5903,Eastgate Hotel
576,Abu Kamal,SY,66.69,clear sky,34.4506,40.9171,البوكمال
578,Hongjiang,CN,77.56,scattered clouds,27.11,109.9956,洪江大酒店
579,Dunmore East,IE,51.1,overcast clouds,52.1514,-6.9861,The Strand Inn
580,Half Moon Bay,US,79.88,mist,37.4636,-122.4286,"The Ritz-Carlton, Half Moon Bay"
582,Inongo,CD,72.03,overcast clouds,-1.95,18.2667,Hotel Du Lac
583,Esperance,AU,60.8,overcast clouds,-33.8667,121.9,Hospitality Esperance
584,Kieta,PG,86.14,scattered clouds,-6.2167,155.6333,Uruna Bay Retreat
585,Pacific Grove,US,62.35,clear sky,36.6177,-121.9166,Lovers Point Inn
586,Panaba,MX,82.35,broken clouds,21.2833,-88.2667,Hotel California
587,Atambua,ID,84.42,overcast clouds,-9.1061,124.8925,Kost Alfa Flat
588,Seoul,KR,70.99,few clouds,37.5683,126.9778,롯데호텔 서울
590,Querecotillo,PE,76.23,broken clouds,-4.8378,-80.6456,Buongorno Suites Sullana II
591,Lugovoy,KZ,60.19,overcast clouds,42.9472,72.7644,Ж.Д Вокзал Луговая
592,Rusera,IN,84.16,clear sky,25.75,86.0333,Santosh Hotel&Santosh resturent
593,Ancud,CL,53.82,overcast clouds,-41.8697,-73.8203,Hotel Arena Gruesa
594,Bayan,CN,79.03,overcast clouds,46.0833,127.4,Wanhao Inn
595,Terra Santa,BR,74.77,overcast clouds,-2.1042,-56.4869,Hotel Sarah
596,Moyale,KE,64.36,scattered clouds,3.5167,39.0584,La Tahzan Guest House
597,Kloulklubed,PW,82.9,broken clouds,7.0419,134.2556,Storyboard Beach Resort
599,Nhulunbuy,AU,88.41,broken clouds,-12.2333,136.7667,East Arnhem Real Estate
601,Ayr,GB,50.5,broken clouds,55.4627,-4.6339,Mercure Ayr Hotel
603,Avera,US,76.55,broken clouds,33.194,-82.5271,
605,Bengkulu,ID,81.21,broken clouds,-3.8004,102.2655,Grage Hotel Bengkulu
607,Tura,IN,79.5,clear sky,25.5198,90.2201,Hotel RIKMAN Continental
608,Ambunti,PG,82.99,overcast clouds,-4.2365,142.8448,AMBUNTI HIDE INN
611,Tezu,IN,79.23,broken clouds,27.9167,96.1667,Circuit House
612,Mount Isa,AU,73.17,overcast clouds,-20.7333,139.5,ibis Styles Mt Isa Verona
613,Natal,BR,79.02,scattered clouds,-5.795,-35.2094,Villa Park Hotel | Natal
614,Hit,IQ,70.72,clear sky,33.6416,42.8251,بيت ابو رباح
615,Matay,EG,62.85,clear sky,28.419,30.7792,Nag Aespen
618,Metro,ID,83.17,broken clouds,-5.1131,105.3067,OYO 3177 Wisma Lintang
619,Jeremie,HT,78.78,scattered clouds,18.65,-74.1167,Auberge’Inn
621,Safaga,EG,71.76,clear sky,26.7292,33.9365,Lamar Resort Abu Soma
622,Sao Domingos,BR,73.71,clear sky,-13.3983,-46.3183,Hotel e Restaurante Uirapuru (Márcio uirapuru )Em São Domingos -Go
623,Port Hedland,AU,78.85,clear sky,-20.3167,118.5667,The Esplanade Hotel
624,Mujiayingzi,CN,76.73,overcast clouds,42.1167,118.7833,Jinjiang Hotel
626,Damavand,IR,54.54,few clouds,35.7178,52.065,آپارتمان زمانیان
627,Washington,US,68.05,overcast clouds,47.5001,-120.5015,"Cashmere Cider Mill Guest Suites, Weddings & Tasting Room"
628,Shu,KZ,63.97,overcast clouds,43.5983,73.7614,Shyngyzkhan
629,Dicabisagan,PH,87.46,few clouds,17.0818,122.4157,Nancy Montanes Bernardo
630,Cabrero,CL,52.38,broken clouds,-37.0333,-72.4,Hotel San Martin
632,Ciudad Guayana,VE,76.51,scattered clouds,8.3533,-62.6528,Hotel Las Americas
633,Alghero,IT,60.89,moderate rain,40.5589,8.3181,Smy Carlos V Alghero
634,Cadiz,ES,53.13,clear sky,36.5,-5.75,Hacienda Barriche
635,Jatai,BR,63.43,broken clouds,-17.8814,-51.7144,Hotel Califórnia
636,Mackay,AU,86.68,few clouds,-21.15,149.2,International Lodge Motel
637,Bisho,ZA,57.76,clear sky,-32.8472,27.4422,Bisho Park bnb
638,West Bay,KY,82.0,few clouds,19.3667,-81.4167,Calypso Cove
639,Maua,BR,59.36,clear sky,-23.6678,-46.4614,Hotel Capriccio Mauá
640,Buchanan,LR,79.66,light rain,5.8808,-10.0467,Kamaneahn Hotel Inc
643,Mae Hong Son,TH,73.54,mist,19.3003,97.9685,Baiyoke Chalet Hotel
646,Roma,US,53.96,clear sky,43.2128,-75.4557,Wingate By Wyndham Rome
647,Laguna,US,86.97,clear sky,38.421,-121.4238,"Holiday Inn Express & Suites Elk Grove Central - Hwy 99, an IHG Hotel"
648,Reforma,MX,85.39,broken clouds,18.1,-91.0167,
649,Tessalit,ML,83.16,overcast clouds,20.1986,1.0114,
650,Ponta Delgada,PT,63.32,broken clouds,37.7333,-25.6667,Vila Nova Hotel
652,Susanville,US,73.24,clear sky,40.4163,-120.653,Comfort Inn & Suites
653,Camargo,MX,82.38,broken clouds,27.6667,-105.1667,Hotel Santa Fe
654,Amahai,ID,87.06,overcast clouds,-3.3333,128.9167,HOTEL ISABELA
655,Pilar,BR,76.93,broken clouds,-9.5972,-35.9567,Pousada e churrascaria Manguaba
656,Pando,UY,54.18,fog,-34.7167,-55.95,viviendas mvotma
657,Solnechnyy,RU,50.16,heavy intensity rain,50.7214,136.6319,Hotel complex Pastoral
659,Dunedin,NZ,59.81,few clouds,-45.8742,170.5036,Scenic Hotel Southern Cross
660,Tripoli,LY,73.0,broken clouds,32.8752,13.1875,Al Waddan Hotel
662,Sambava,MG,73.6,broken clouds,-14.2667,50.1667,Melrose
663,Paita,PE,68.52,broken clouds,-5.0892,-81.1144,Hotel Náutico de Paita
666,Fare,PF,82.02,few clouds,-16.7,-151.0167,Maitai Lapita Village Huahine
667,Bonthe,SL,79.95,moderate rain,7.5264,-12.505,Bonthe Holiday Village
668,Pekan,MY,82.78,overcast clouds,3.4836,103.3996,Pekan Budget Hotel
669,Pasni,PK,80.29,clear sky,25.2631,63.471,Kashmiri Hotal
671,North Bend,US,57.92,overcast clouds,43.4065,-124.2243,Red Lion Hotel Coos Bay
672,Lorengau,PG,83.86,broken clouds,-2.0226,147.2712,Lorengau Harbourside Hotel
673,Bay Saint Louis,US,79.02,few clouds,30.3088,-89.33,The Abode Guest House
674,Bardiyah,LY,60.4,clear sky,31.7561,25.0865,بورتو بردية
675,Komatipoort,ZA,61.12,few clouds,-25.4332,31.9548,Kruger View Backpackers
677,Monrovia,LR,80.28,light rain,6.3005,-10.7969,Sunset Inn
678,Altay,CN,60.03,broken clouds,47.8667,88.1167,Jinqiao Hotel
679,Bhuj,IN,79.88,scattered clouds,23.2667,69.6667,Regenta Resort Bhuj
